{
  "names": [
    {
      "id": "AW",
      "name": "Ahrweiler",
      "lng": 7.12083333333333,
      "lat": 50.4780555555556
    },
    {
      "id": "AIC  FDB",
      "name": "Aichach-Friedberg",
      "lng": 11.0527777777778,
      "lat": 48.4275
    },
    {
      "id": "UL",
      "name": "Alb-Donau-Kreis",
      "lng": 9.67583333333333,
      "lat": 48.3477777777778
    },
    {
      "id": "ABG  SLN",
      "name": "Altenburger Land",
      "lng": 12.3991666666667,
      "lat": 50.9563888888889
    },
    {
      "id": "AK",
      "name": "Altenkirchen (Westerwald)",
      "lng": 7.88777777777778,
      "lat": 50.7952777777778
    },
    {
      "id": "SAW  GA  KLZ",
      "name": "Altmarkkreis Salzwedel",
      "lng": 11.2272222222222,
      "lat": 52.6797222222222
    },
    {
      "id": "AÖ  LF",
      "name": "Altötting",
      "lng": 12.7052777777778,
      "lat": 48.2097222222222
    },
    {
      "id": "AZ",
      "name": "Alzey-Worms",
      "lng": 8.15722222222222,
      "lat": 49.7594444444445
    },
    { "id": "AM", "name": "Amberg", "lng": 11.8558333333333, "lat": 49.4425 },
    {
      "id": "AS  BUL  ESB  NAB  SUL",
      "name": "Amberg-Sulzbach",
      "lng": 11.8097222222222,
      "lat": 49.3583333333333
    },
    {
      "id": "WST",
      "name": "Ammerland",
      "lng": 8.01333333333333,
      "lat": 53.2186111111111
    },
    {
      "id": "ABI  AZE  BTF  KÖT  ZE",
      "name": "Anhalt-Bitterfeld",
      "lng": 12.2091666666667,
      "lat": 51.6480555555556
    },
    {
      "id": "AN  DKB  FEU  ROT",
      "name": "Ansbach",
      "lng": 10.3008333333333,
      "lat": 49.2269444444445
    },
    { "id": "AN", "name": "Ansbach", "lng": 10.5719444444444, "lat": 49.3025 },
    {
      "id": "AB",
      "name": "Aschaffenburg",
      "lng": 9.14777777777778,
      "lat": 49.9736111111111
    },
    {
      "id": "AB  ALZ",
      "name": "Aschaffenburg",
      "lng": 9.23027777777778,
      "lat": 50.0444444444444
    },
    { "id": "A", "name": "Augsburg", "lng": 10.8925, "lat": 48.3697222222222 },
    {
      "id": "A  SMÜ  WER",
      "name": "Augsburg",
      "lng": 10.7319444444444,
      "lat": 48.3538888888889
    },
    {
      "id": "AUR  NOR",
      "name": "Aurich",
      "lng": 7.37805555555556,
      "lat": 53.4888888888889
    },
    {
      "id": "DÜW",
      "name": "Bad Dürkheim",
      "lng": 8.11027777777778,
      "lat": 49.4530555555556
    },
    {
      "id": "KG  BRK  HAB",
      "name": "Bad Kissingen",
      "lng": 9.96472222222222,
      "lat": 50.2225
    },
    {
      "id": "KH",
      "name": "Bad Kreuznach",
      "lng": 7.68666666666667,
      "lat": 49.8247222222222
    },
    {
      "id": "TÖL  WOR",
      "name": "Bad Tölz-Wolfratshausen",
      "lng": 11.4830555555556,
      "lat": 47.7272222222222
    },
    {
      "id": "BAD",
      "name": "Baden-Baden",
      "lng": 8.24,
      "lat": 48.7616666666667
    },
    {
      "id": "BA",
      "name": "Bamberg",
      "lng": 10.8866666666667,
      "lat": 49.8933333333333
    },
    {
      "id": "BA",
      "name": "Bamberg",
      "lng": 11.0488888888889,
      "lat": 49.9108333333333
    },
    {
      "id": "BAR  BER  EW",
      "name": "Barnim",
      "lng": 13.7033333333333,
      "lat": 52.8230555555556
    },
    {
      "id": "BZ  BIW  HY  KM",
      "name": "Bautzen",
      "lng": 14.2311111111111,
      "lat": 51.2688888888889
    },
    {
      "id": "BT",
      "name": "Bayreuth",
      "lng": 11.5713888888889,
      "lat": 49.9455555555556
    },
    {
      "id": "BT  EBS  ESB  KEM  MÜB  PEG",
      "name": "Bayreuth",
      "lng": 11.7241666666667,
      "lat": 49.9708333333333
    },
    {
      "id": "BGL  BGD  LF  REI",
      "name": "Berchtesgadener Land",
      "lng": 12.9955555555556,
      "lat": 47.5955555555556
    },
    {
      "id": "HP",
      "name": "Bergstraße",
      "lng": 8.63111111111111,
      "lat": 49.6727777777778
    },
    {
      "id": "B",
      "name": "Berlin",
      "lng": 13.4055555555556,
      "lat": 52.5177777777778
    },
    {
      "id": "WIL  BKS",
      "name": "Bernkastel-Wittlich",
      "lng": 6.9675,
      "lat": 49.9244444444444
    },
    {
      "id": "BC",
      "name": "Biberach",
      "lng": 9.70305555555555,
      "lat": 48.0769444444445
    },
    {
      "id": "BI",
      "name": "Bielefeld",
      "lng": 8.53222222222222,
      "lat": 52.0205555555556
    },
    { "id": "BIR", "name": "Birkenfeld", "lng": 7.2775, "lat": 49.7125 },
    {
      "id": "BO  WAT",
      "name": "Bochum",
      "lng": 7.21722222222222,
      "lat": 51.4827777777778
    },
    {
      "id": "FN  TT  ÜB",
      "name": "Bodenseekreis",
      "lng": 9.40111111111111,
      "lat": 47.7336111111111
    },
    {
      "id": "BN",
      "name": "Bonn",
      "lng": 7.09916666666667,
      "lat": 50.7341666666667
    },
    {
      "id": "BOR  AH  BOH",
      "name": "Borken",
      "lng": 6.83916666666667,
      "lat": 51.8513888888889
    },
    { "id": "BOT", "name": "Bottrop", "lng": 6.93, "lat": 51.5236111111111 },
    {
      "id": "BRB",
      "name": "Brandenburg an der Havel",
      "lng": 12.5633333333333,
      "lat": 52.4086111111111
    },
    {
      "id": "BS",
      "name": "Braunschweig",
      "lng": 10.5205555555556,
      "lat": 52.2625
    },
    {
      "id": "FR",
      "name": "Breisgau-Hochschwarzwald",
      "lng": 8.13333333333333,
      "lat": 47.9302777777778
    },
    {
      "id": "HB",
      "name": "Bremen",
      "lng": 8.80944444444445,
      "lat": 53.0755555555556
    },
    {
      "id": "HB",
      "name": "Bremerhaven",
      "lng": 8.57805555555555,
      "lat": 53.5430555555556
    },
    {
      "id": "BLK  HHM  NEB  NMB  WSF  ZZ",
      "name": "Burgenlandkreis",
      "lng": 11.8838888888889,
      "lat": 51.1472222222222
    },
    {
      "id": "BB  LEO",
      "name": "Böblingen",
      "lng": 8.94277777777778,
      "lat": 48.6780555555556
    },
    {
      "id": "BK  BÖ  HDL  OC  OK  WMS  WZL",
      "name": "Börde",
      "lng": 11.3477777777778,
      "lat": 52.2205555555556
    },
    {
      "id": "BÜS",
      "name": "Büsingen am Hochrhein",
      "lng": 8.69027777777778,
      "lat": 47.6972222222222
    },
    {
      "id": "CW",
      "name": "Calw",
      "lng": 8.63583333333333,
      "lat": 48.6788888888889
    },
    {
      "id": "CE",
      "name": "Celle",
      "lng": 10.1036111111111,
      "lat": 52.7133333333333
    },
    {
      "id": "CHA  KÖZ  ROD  WÜM",
      "name": "Cham",
      "lng": 12.6955555555556,
      "lat": 49.2369444444445
    },
    {
      "id": "C",
      "name": "Chemnitz",
      "lng": 12.9216666666667,
      "lat": 50.8336111111111
    },
    {
      "id": "CLP",
      "name": "Cloppenburg",
      "lng": 7.94,
      "lat": 52.8980555555556
    },
    {
      "id": "CO  NEC",
      "name": "Coburg",
      "lng": 11.0947222222222,
      "lat": 50.2425
    },
    {
      "id": "CO",
      "name": "Coburg",
      "lng": 10.9602777777778,
      "lat": 50.2594444444445
    },
    {
      "id": "COC  ZEL",
      "name": "Cochem-Zell",
      "lng": 7.17444444444445,
      "lat": 50.1327777777778
    },
    {
      "id": "COE  LH",
      "name": "Coesfeld",
      "lng": 7.36638888888889,
      "lat": 51.8666666666667
    },
    { "id": "CB", "name": "Cottbus", "lng": 14.335, "lat": 51.7594444444445 },
    {
      "id": "CUX",
      "name": "Cuxhaven",
      "lng": 8.81194444444444,
      "lat": 53.6163888888889
    },
    {
      "id": "DAH",
      "name": "Dachau",
      "lng": 11.3572222222222,
      "lat": 48.3344444444444
    },
    {
      "id": "LDS  KW  LC  LN",
      "name": "Dahme-Spreewald",
      "lng": 13.9230555555556,
      "lat": 52.0119444444445
    },
    {
      "id": "DA",
      "name": "Darmstadt",
      "lng": 8.65666666666667,
      "lat": 49.8733333333333
    },
    {
      "id": "DA  DI",
      "name": "Darmstadt-Dieburg",
      "lng": 8.91722222222222,
      "lat": 49.8858333333333
    },
    {
      "id": "DEG",
      "name": "Deggendorf",
      "lng": 13.0008333333333,
      "lat": 48.7786111111111
    },
    { "id": "DEL", "name": "Delmenhorst", "lng": 8.63, "lat": 53.05 },
    {
      "id": "DE  RSL",
      "name": "Dessau-Roßlau",
      "lng": 12.2419444444444,
      "lat": 51.8308333333333
    },
    {
      "id": "DH  SY",
      "name": "Diepholz",
      "lng": 8.70111111111111,
      "lat": 52.7283333333333
    },
    {
      "id": "DLG  WER",
      "name": "Dillingen a.d. Donau",
      "lng": 10.5277777777778,
      "lat": 48.5963888888889
    },
    {
      "id": "DGF  LAN",
      "name": "Dingolfing-Landau",
      "lng": 12.6105555555556,
      "lat": 48.6411111111111
    },
    {
      "id": "HEI  MED",
      "name": "Dithmarschen",
      "lng": 9.10833333333333,
      "lat": 54.1341666666667
    },
    {
      "id": "DON  NÖ",
      "name": "Donau-Ries",
      "lng": 10.7127777777778,
      "lat": 48.8069444444444
    },
    {
      "id": "KIB  ROK",
      "name": "Donnersbergkreis",
      "lng": 7.915,
      "lat": 49.6319444444444
    },
    {
      "id": "DO",
      "name": "Dortmund",
      "lng": 7.46416666666667,
      "lat": 51.5141666666667
    },
    {
      "id": "DD",
      "name": "Dresden",
      "lng": 13.7369444444444,
      "lat": 51.0516666666667
    },
    {
      "id": "DU",
      "name": "Duisburg",
      "lng": 6.76555555555556,
      "lat": 51.4333333333333
    },
    {
      "id": "DN  JÜL  MON  SLE",
      "name": "Düren",
      "lng": 6.44583333333333,
      "lat": 50.8177777777778
    },
    { "id": "D", "name": "Düsseldorf", "lng": 6.78, "lat": 51.2241666666667 },
    {
      "id": "EBE",
      "name": "Ebersberg",
      "lng": 11.9133333333333,
      "lat": 48.0761111111111
    },
    {
      "id": "EIC  HIG  WBS",
      "name": "Eichsfeld",
      "lng": 10.2533333333333,
      "lat": 51.3836111111111
    },
    {
      "id": "EI",
      "name": "Eichstätt",
      "lng": 11.3702777777778,
      "lat": 48.8980555555556
    },
    {
      "id": "BIT  PRÜ",
      "name": "Eifelkreis Bitburg-Prüm",
      "lng": 6.41027777777778,
      "lat": 50.0619444444444
    },
    {
      "id": "EE  FI  LIB",
      "name": "Elbe-Elster",
      "lng": 13.4597222222222,
      "lat": 51.6122222222222
    },
    {
      "id": "EMD",
      "name": "Emden",
      "lng": 7.20583333333333,
      "lat": 53.3705555555556
    },
    {
      "id": "EM",
      "name": "Emmendingen",
      "lng": 7.8975,
      "lat": 48.1486111111111
    },
    { "id": "EL", "name": "Emsland", "lng": 7.4025, "lat": 52.7375 },
    {
      "id": "EN  WIT",
      "name": "Ennepe-Ruhr-Kreis",
      "lng": 7.31305555555556,
      "lat": 51.3488888888889
    },
    { "id": "PF", "name": "Enzkreis", "lng": 8.82777777777778, "lat": 48.9175 },
    {
      "id": "ED",
      "name": "Erding",
      "lng": 12.0005555555556,
      "lat": 48.3002777777778
    },
    {
      "id": "EF",
      "name": "Erfurt",
      "lng": 11.0272222222222,
      "lat": 50.9772222222222
    },
    { "id": "ER", "name": "Erlangen", "lng": 11.005, "lat": 49.595 },
    {
      "id": "ERH  HÖS",
      "name": "Erlangen-Höchstadt",
      "lng": 10.9408333333333,
      "lat": 49.67
    },
    {
      "id": "ERZ  ANA  ASZ  AU  MAB  MEK  STL  SZB  ZP",
      "name": "Erzgebirgskreis",
      "lng": 12.9447222222222,
      "lat": 50.6088888888889
    },
    { "id": "E", "name": "Essen", "lng": 7.0125, "lat": 51.4558333333333 },
    {
      "id": "ES  NT",
      "name": "Esslingen",
      "lng": 9.36916666666667,
      "lat": 48.6480555555556
    },
    {
      "id": "EU  SLE",
      "name": "Euskirchen",
      "lng": 6.64388888888889,
      "lat": 50.5363888888889
    },
    { "id": "FL", "name": "Flensburg", "lng": 9.4375, "lat": 54.7825 },
    {
      "id": "FO  EBS  PEG",
      "name": "Forchheim",
      "lng": 11.1730555555556,
      "lat": 49.7208333333333
    },
    {
      "id": "FT",
      "name": "Frankenthal (Pfalz)",
      "lng": 8.35416666666667,
      "lat": 49.5355555555556
    },
    {
      "id": "FF",
      "name": "Frankfurt (Oder)",
      "lng": 14.5511111111111,
      "lat": 52.3416666666667
    },
    {
      "id": "F",
      "name": "Frankfurt am Main",
      "lng": 8.6825,
      "lat": 50.1108333333333
    },
    {
      "id": "FR",
      "name": "Freiburg im Breisgau",
      "lng": 7.85,
      "lat": 47.9947222222222
    },
    {
      "id": "FS",
      "name": "Freising",
      "lng": 11.7405555555556,
      "lat": 48.4472222222222
    },
    {
      "id": "FDS  HCH  HOR  WOL",
      "name": "Freudenstadt",
      "lng": 8.46527777777778,
      "lat": 48.4744444444444
    },
    {
      "id": "FRG  GRA  WOS",
      "name": "Freyung-Grafenau",
      "lng": 13.5133333333333,
      "lat": 48.8269444444444
    },
    {
      "id": "FRI",
      "name": "Friesland",
      "lng": 7.98388888888889,
      "lat": 53.505
    },
    {
      "id": "FD",
      "name": "Fulda",
      "lng": 9.75888888888889,
      "lat": 50.5638888888889
    },
    {
      "id": "FFB",
      "name": "Fürstenfeldbruck",
      "lng": 11.2011111111111,
      "lat": 48.1877777777778
    },
    {
      "id": "FÜ",
      "name": "Fürth",
      "lng": 10.8497222222222,
      "lat": 49.4466666666667
    },
    { "id": "FÜ", "name": "Fürth", "lng": 10.99, "lat": 49.4775 },
    {
      "id": "GAP",
      "name": "Garmisch-Partenkirchen",
      "lng": 11.1297222222222,
      "lat": 47.5563888888889
    },
    {
      "id": "GE",
      "name": "Gelsenkirchen",
      "lng": 7.09611111111111,
      "lat": 51.5108333333333
    },
    {
      "id": "G",
      "name": "Gera",
      "lng": 12.0805555555556,
      "lat": 50.8761111111111
    },
    {
      "id": "GER",
      "name": "Germersheim",
      "lng": 8.23888888888889,
      "lat": 49.0480555555556
    },
    { "id": "GI", "name": "Gießen", "lng": 8.8075, "lat": 50.5702777777778 },
    { "id": "GF", "name": "Gifhorn", "lng": 10.6041666666667, "lat": 52.58 },
    {
      "id": "GS  BRL  CLZ",
      "name": "Goslar",
      "lng": 10.4005555555556,
      "lat": 51.8747222222222
    },
    {
      "id": "GTH",
      "name": "Gotha",
      "lng": 10.6936111111111,
      "lat": 50.9105555555556
    },
    {
      "id": "NOH",
      "name": "Grafschaft Bentheim",
      "lng": 7.10916666666667,
      "lat": 52.4472222222222
    },
    {
      "id": "HGW",
      "name": "Greifswald",
      "lng": 13.3797222222222,
      "lat": 54.0958333333333
    },
    {
      "id": "GRZ  ZR",
      "name": "Greiz",
      "lng": 12.0888888888889,
      "lat": 50.7011111111111
    },
    {
      "id": "GG",
      "name": "Groß-Gerau",
      "lng": 8.47027777777778,
      "lat": 49.9044444444444
    },
    { "id": "GP", "name": "Göppingen", "lng": 9.7175, "lat": 48.6630555555556 },
    {
      "id": "GR  LÖB  NOL  NY  WSW  ZI",
      "name": "Görlitz",
      "lng": 14.8791666666667,
      "lat": 51.1972222222222
    },
    {
      "id": "GÖ  DUD  HMÜ  OHA",
      "name": "Göttingen",
      "lng": 10.1133333333333,
      "lat": 51.565
    },
    {
      "id": "GZ  KRU",
      "name": "Günzburg",
      "lng": 10.3811111111111,
      "lat": 48.3527777777778
    },
    {
      "id": "GT",
      "name": "Gütersloh",
      "lng": 8.41583333333333,
      "lat": 51.8602777777778
    },
    { "id": "HA", "name": "Hagen", "lng": 7.4675, "lat": 51.3602777777778 },
    {
      "id": "HAL",
      "name": "Halle (Saale)",
      "lng": 11.9705555555556,
      "lat": 51.4825
    },
    {
      "id": "HH",
      "name": "Hamburg",
      "lng": 9.99694444444444,
      "lat": 53.5505555555556
    },
    { "id": "HM", "name": "Hameln-Pyrmont", "lng": 9.39, "lat": 52.095 },
    {
      "id": "HAM",
      "name": "Hamm",
      "lng": 7.81694444444444,
      "lat": 51.6783333333333
    },
    {
      "id": "HU",
      "name": "Hanau",
      "lng": 8.91527777777778,
      "lat": 50.1355555555556
    },
    {
      "id": "WL",
      "name": "Harburg",
      "lng": 9.96277777777778,
      "lat": 53.3158333333333
    },
    {
      "id": "HZ  HBS  QLB  WR",
      "name": "Harz",
      "lng": 10.9588888888889,
      "lat": 51.8211111111111
    },
    {
      "id": "HVL  NAU  RN",
      "name": "Havelland",
      "lng": 12.6286111111111,
      "lat": 52.6211111111111
    },
    {
      "id": "HAS  EBN  GEO  HOH",
      "name": "Haßberge",
      "lng": 10.6069444444444,
      "lat": 50.0627777777778
    },
    {
      "id": "HK",
      "name": "Heidekreis",
      "lng": 9.76861111111111,
      "lat": 52.9280555555556
    },
    {
      "id": "HD",
      "name": "Heidelberg",
      "lng": 8.70194444444444,
      "lat": 49.4088888888889
    },
    {
      "id": "HDH",
      "name": "Heidenheim",
      "lng": 10.1822222222222,
      "lat": 48.6622222222222
    },
    {
      "id": "HN",
      "name": "Heilbronn",
      "lng": 9.21805555555556,
      "lat": 49.1405555555556
    },
    {
      "id": "HN",
      "name": "Heilbronn",
      "lng": 9.29333333333333,
      "lat": 49.2041666666667
    },
    {
      "id": "HS  ERK  GK",
      "name": "Heinsberg",
      "lng": 6.16388888888889,
      "lat": 51.0494444444444
    },
    {
      "id": "HE",
      "name": "Helmstedt",
      "lng": 10.8888888888889,
      "lat": 52.2605555555556
    },
    { "id": "HF", "name": "Herford", "lng": 8.64388888888889, "lat": 52.1675 },
    {
      "id": "HER  WAN",
      "name": "Herne",
      "lng": 7.22277777777778,
      "lat": 51.5402777777778
    },
    {
      "id": "HEF  ROF",
      "name": "Hersfeld-Rotenburg",
      "lng": 9.75277777777778,
      "lat": 50.9061111111111
    },
    {
      "id": "RZ",
      "name": "Herzogtum Lauenburg",
      "lng": 10.6016666666667,
      "lat": 53.5888888888889
    },
    {
      "id": "HBN",
      "name": "Hildburghausen",
      "lng": 10.7338888888889,
      "lat": 50.4338888888889
    },
    {
      "id": "HI  ALF",
      "name": "Hildesheim",
      "lng": 9.94333333333333,
      "lat": 52.09
    },
    {
      "id": "HSK",
      "name": "Hochsauerlandkreis",
      "lng": 8.385,
      "lat": 51.3069444444444
    },
    {
      "id": "HG  USI",
      "name": "Hochtaunuskreis",
      "lng": 8.50472222222222,
      "lat": 50.2816666666667
    },
    {
      "id": "HO",
      "name": "Hof",
      "lng": 11.9136111111111,
      "lat": 50.3163888888889
    },
    {
      "id": "HO  MÜB  NAI  REH  SAN",
      "name": "Hof",
      "lng": 11.8436111111111,
      "lat": 50.2027777777778
    },
    {
      "id": "KÜN  ÖHR",
      "name": "Hohenlohekreis",
      "lng": 9.61388888888889,
      "lat": 49.2713888888889
    },
    {
      "id": "HOL",
      "name": "Holzminden",
      "lng": 9.55138888888889,
      "lat": 51.8805555555556
    },
    {
      "id": "HX  WAR",
      "name": "Höxter",
      "lng": 9.17805555555555,
      "lat": 51.6847222222222
    },
    {
      "id": "IK  ARN  IL",
      "name": "Ilm-Kreis",
      "lng": 10.9661111111111,
      "lat": 50.7377777777778
    },
    {
      "id": "IN",
      "name": "Ingolstadt",
      "lng": 11.4233333333333,
      "lat": 48.7655555555556
    },
    { "id": "J", "name": "Jena", "lng": 11.5919444444444, "lat": 50.93 },
    {
      "id": "JL  BRG  GNT",
      "name": "Jerichower Land",
      "lng": 12.0261111111111,
      "lat": 52.2605555555556
    },
    {
      "id": "KL",
      "name": "Kaiserslautern",
      "lng": 7.77083333333333,
      "lat": 49.4430555555556
    },
    {
      "id": "KL",
      "name": "Kaiserslautern",
      "lng": 7.54277777777778,
      "lat": 49.4319444444444
    },
    {
      "id": "KA",
      "name": "Karlsruhe",
      "lng": 8.40527777777778,
      "lat": 49.0097222222222
    },
    {
      "id": "KA",
      "name": "Karlsruhe",
      "lng": 8.66444444444445,
      "lat": 49.0516666666667
    },
    {
      "id": "KS",
      "name": "Kassel",
      "lng": 9.49527777777778,
      "lat": 51.3147222222222
    },
    {
      "id": "KS  HOG  WOH",
      "name": "Kassel",
      "lng": 9.40666666666667,
      "lat": 51.4011111111111
    },
    {
      "id": "KF",
      "name": "Kaufbeuren",
      "lng": 10.6205555555556,
      "lat": 47.8797222222222
    },
    {
      "id": "KEH  MAI  PAR  RID  ROL",
      "name": "Kelheim",
      "lng": 11.8575,
      "lat": 48.8247222222222
    },
    {
      "id": "KE",
      "name": "Kempten (Allgäu)",
      "lng": 10.3177777777778,
      "lat": 47.7238888888889
    },
    {
      "id": "KI",
      "name": "Kiel",
      "lng": 10.1372222222222,
      "lat": 54.3216666666667
    },
    {
      "id": "KT",
      "name": "Kitzingen",
      "lng": 10.2561111111111,
      "lat": 49.7530555555556
    },
    {
      "id": "KLE  GEL",
      "name": "Kleve",
      "lng": 6.25916666666667,
      "lat": 51.6519444444444
    },
    { "id": "KO", "name": "Koblenz", "lng": 7.5925, "lat": 50.36 },
    {
      "id": "KN  STO",
      "name": "Konstanz",
      "lng": 8.91194444444444,
      "lat": 47.7991666666667
    },
    { "id": "KR", "name": "Krefeld", "lng": 6.56083333333333, "lat": 51.3325 },
    {
      "id": "KC  SAN",
      "name": "Kronach",
      "lng": 11.3719444444444,
      "lat": 50.3277777777778
    },
    {
      "id": "KU  EBS  SAN",
      "name": "Kulmbach",
      "lng": 11.4822222222222,
      "lat": 50.1025
    },
    {
      "id": "KUS",
      "name": "Kusel",
      "lng": 7.47111111111111,
      "lat": 49.5497222222222
    },
    {
      "id": "KYF  ART  SDH",
      "name": "Kyffhäuserkreis",
      "lng": 10.9847222222222,
      "lat": 51.325
    },
    {
      "id": "K",
      "name": "Köln",
      "lng": 6.95694444444445,
      "lat": 50.9380555555556
    },
    {
      "id": "LDK  DIL  WZ",
      "name": "Lahn-Dill-Kreis",
      "lng": 8.36555555555556,
      "lat": 50.6480555555556
    },
    {
      "id": "LD",
      "name": "Landau in der Pfalz",
      "lng": 8.1125,
      "lat": 49.1966666666667
    },
    {
      "id": "LL",
      "name": "Landsberg am Lech",
      "lng": 10.9486111111111,
      "lat": 48.0241666666667
    },
    {
      "id": "LA",
      "name": "Landshut",
      "lng": 12.1588888888889,
      "lat": 48.5386111111111
    },
    {
      "id": "LA  MAI  MAL  ROL  VIB",
      "name": "Landshut",
      "lng": 12.3480555555556,
      "lat": 48.4525
    },
    {
      "id": "LER",
      "name": "Leer",
      "lng": 7.50083333333333,
      "lat": 53.2302777777778
    },
    {
      "id": "L  BNA  GHA  GRM  MTL  WUR",
      "name": "Leipzig",
      "lng": 12.5991666666667,
      "lat": 51.2213888888889
    },
    {
      "id": "L",
      "name": "Leipzig",
      "lng": 12.3780555555556,
      "lat": 51.3383333333333
    },
    {
      "id": "LEV  OP",
      "name": "Leverkusen",
      "lng": 6.97972222222222,
      "lat": 51.0325
    },
    {
      "id": "LIF  STE",
      "name": "Lichtenfels",
      "lng": 11.1169444444444,
      "lat": 50.1094444444445
    },
    {
      "id": "LM  WEL",
      "name": "Limburg-Weilburg",
      "lng": 8.19944444444445,
      "lat": 50.4275
    },
    {
      "id": "LI",
      "name": "Lindau (Bodensee)",
      "lng": 9.88277777777778,
      "lat": 47.6052777777778
    },
    {
      "id": "LIP",
      "name": "Lippe",
      "lng": 8.95083333333333,
      "lat": 51.9813888888889
    },
    {
      "id": "LB  VAI",
      "name": "Ludwigsburg",
      "lng": 9.12305555555556,
      "lat": 48.94
    },
    {
      "id": "LU",
      "name": "Ludwigshafen am Rhein",
      "lng": 8.44777777777778,
      "lat": 49.4833333333333
    },
    {
      "id": "LUP  HGN  LBZ  LWL  PCH  STB",
      "name": "Ludwigslust-Parchim",
      "lng": 11.4758333333333,
      "lat": 53.3469444444444
    },
    {
      "id": "LÖ",
      "name": "Lörrach",
      "lng": 7.77388888888889,
      "lat": 47.7033333333333
    },
    {
      "id": "HL",
      "name": "Lübeck",
      "lng": 10.6838888888889,
      "lat": 53.8663888888889
    },
    {
      "id": "DAN",
      "name": "Lüchow-Dannenberg",
      "lng": 11.1230555555556,
      "lat": 53.02
    },
    { "id": "LG", "name": "Lüneburg", "lng": 10.6152777777778, "lat": 53.28 },
    {
      "id": "MD",
      "name": "Magdeburg",
      "lng": 11.6327777777778,
      "lat": 52.1261111111111
    },
    {
      "id": "MKK  GN  SLÜ",
      "name": "Main-Kinzig-Kreis",
      "lng": 9.40416666666667,
      "lat": 50.2647222222222
    },
    {
      "id": "MSP",
      "name": "Main-Spessart",
      "lng": 9.66277777777778,
      "lat": 49.9933333333333
    },
    {
      "id": "TBB  MGH",
      "name": "Main-Tauber-Kreis",
      "lng": 9.72555555555556,
      "lat": 49.5605555555556
    },
    {
      "id": "MTK",
      "name": "Main-Taunus-Kreis",
      "lng": 8.43444444444445,
      "lat": 50.1025
    },
    {
      "id": "MZ",
      "name": "Mainz",
      "lng": 8.27194444444445,
      "lat": 50.0019444444444
    },
    {
      "id": "MZ  BIN",
      "name": "Mainz-Bingen",
      "lng": 8.03277777777778,
      "lat": 49.9302777777778
    },
    {
      "id": "MA",
      "name": "Mannheim",
      "lng": 8.46638888888889,
      "lat": 49.4877777777778
    },
    {
      "id": "MSH  EIL  HET  ML  SGH",
      "name": "Mansfeld-Südharz",
      "lng": 11.3563888888889,
      "lat": 51.5358333333333
    },
    {
      "id": "MR  BID",
      "name": "Marburg-Biedenkopf",
      "lng": 8.73805555555555,
      "lat": 50.8369444444445
    },
    {
      "id": "MYK  MY",
      "name": "Mayen-Koblenz",
      "lng": 7.33222222222222,
      "lat": 50.3316666666667
    },
    {
      "id": "MSE  AT  DM  MC  MST  MÜR  NZ  RM  WRN",
      "name": "Mecklenburgische Seenplatte",
      "lng": 13.0022222222222,
      "lat": 53.5433333333333
    },
    {
      "id": "MEI  GRH  RG  RIE",
      "name": "Meißen",
      "lng": 13.4827777777778,
      "lat": 51.2394444444444
    },
    { "id": "MM", "name": "Memmingen", "lng": 10.185, "lat": 47.9883333333333 },
    {
      "id": "MZG",
      "name": "Merzig-Wadern",
      "lng": 6.66611111111111,
      "lat": 49.4663888888889
    },
    {
      "id": "ME",
      "name": "Mettmann",
      "lng": 7.07583333333333,
      "lat": 51.3236111111111
    },
    {
      "id": "MB",
      "name": "Miesbach",
      "lng": 11.8091666666667,
      "lat": 47.7413888888889
    },
    {
      "id": "MIL  OBB",
      "name": "Miltenberg",
      "lng": 9.23472222222222,
      "lat": 49.7572222222222
    },
    {
      "id": "MI",
      "name": "Minden-Lübbecke",
      "lng": 8.72277777777778,
      "lat": 52.32
    },
    {
      "id": "FG  BED  DL  FLÖ  HC  MW  RL",
      "name": "Mittelsachsen",
      "lng": 13.1380555555556,
      "lat": 50.9555555555556
    },
    {
      "id": "MOL  FRW  SEE  SRB",
      "name": "Märkisch-Oderland",
      "lng": 14.1327777777778,
      "lat": 52.6419444444444
    },
    {
      "id": "MK",
      "name": "Märkischer Kreis",
      "lng": 7.71277777777778,
      "lat": 51.2625
    },
    {
      "id": "MG",
      "name": "Mönchengladbach",
      "lng": 6.43166666666667,
      "lat": 51.1944444444444
    },
    {
      "id": "MÜ  VIB  WS",
      "name": "Mühldorf a. Inn",
      "lng": 12.3816666666667,
      "lat": 48.2391666666667
    },
    {
      "id": "MH",
      "name": "Mülheim an der Ruhr",
      "lng": 6.885,
      "lat": 51.4280555555556
    },
    {
      "id": "M",
      "name": "München",
      "lng": 11.5755555555556,
      "lat": 48.1369444444445
    },
    {
      "id": "M  AIB  WOR",
      "name": "München",
      "lng": 11.6183333333333,
      "lat": 48.0041666666667
    },
    {
      "id": "MS",
      "name": "Münster",
      "lng": 7.62666666666667,
      "lat": 51.9619444444445
    },
    {
      "id": "MOS  BCH",
      "name": "Neckar-Odenwald-Kreis",
      "lng": 9.28,
      "lat": 49.4666666666667
    },
    {
      "id": "NU  ILL",
      "name": "Neu-Ulm",
      "lng": 10.1411111111111,
      "lat": 48.2980555555556
    },
    {
      "id": "NB",
      "name": "Neubrandenburg",
      "lng": 13.26,
      "lat": 53.5572222222222
    },
    {
      "id": "ND  SOB",
      "name": "Neuburg-Schrobenhausen",
      "lng": 11.1975,
      "lat": 48.6644444444444
    },
    {
      "id": "NM  PAR",
      "name": "Neumarkt i.d. OPf.",
      "lng": 11.5666666666667,
      "lat": 49.2158333333333
    },
    {
      "id": "NMS",
      "name": "Neumünster",
      "lng": 9.98833333333333,
      "lat": 54.07
    },
    {
      "id": "NK  OTW",
      "name": "Neunkirchen",
      "lng": 7.11722222222222,
      "lat": 49.3758333333333
    },
    {
      "id": "NEA  SEF  UFF",
      "name": "Neustadt a.d. Aisch-Bad Windsheim",
      "lng": 10.4652777777778,
      "lat": 49.5694444444445
    },
    {
      "id": "NEW  ESB  VOH",
      "name": "Neustadt a.d. Waldnaab",
      "lng": 11.8713888888889,
      "lat": 49.7258333333333
    },
    {
      "id": "NW",
      "name": "Neustadt an der Weinstraße",
      "lng": 8.14083333333333,
      "lat": 49.3519444444445
    },
    {
      "id": "NR",
      "name": "Neuwied",
      "lng": 7.46138888888889,
      "lat": 50.5144444444444
    },
    {
      "id": "NI",
      "name": "Nienburg (Weser)",
      "lng": 9.25777777777778,
      "lat": 52.6486111111111
    },
    {
      "id": "NF",
      "name": "Nordfriesland",
      "lng": 9.06361111111111,
      "lat": 54.6177777777778
    },
    {
      "id": "NDH",
      "name": "Nordhausen",
      "lng": 10.7308333333333,
      "lat": 51.5022222222222
    },
    {
      "id": "TDO  DZ  EB  OZ  TG  TO",
      "name": "Nordsachsen",
      "lng": 13.0383333333333,
      "lat": 51.4422222222222
    },
    {
      "id": "NWM  GDB  GVM  WIS",
      "name": "Nordwestmecklenburg",
      "lng": 11.2488888888889,
      "lat": 53.8186111111111
    },
    {
      "id": "NOM  EIN  GAN",
      "name": "Northeim",
      "lng": 9.84888888888889,
      "lat": 51.7433333333333
    },
    {
      "id": "N",
      "name": "Nürnberg",
      "lng": 11.0752777777778,
      "lat": 49.4508333333333
    },
    {
      "id": "LAU  ESB  HEB  N  PEG",
      "name": "Nürnberger Land",
      "lng": 11.3688888888889,
      "lat": 49.4913888888889
    },
    {
      "id": "OA",
      "name": "Oberallgäu",
      "lng": 10.2605555555556,
      "lat": 47.5788888888889
    },
    {
      "id": "GM",
      "name": "Oberbergischer Kreis",
      "lng": 7.51694444444444,
      "lat": 51.0125
    },
    {
      "id": "OB",
      "name": "Oberhausen",
      "lng": 6.85222222222222,
      "lat": 51.4702777777778
    },
    {
      "id": "OHV",
      "name": "Oberhavel",
      "lng": 13.2052777777778,
      "lat": 52.9063888888889
    },
    {
      "id": "OSL  CA  SFB",
      "name": "Oberspreewald-Lausitz",
      "lng": 13.9433333333333,
      "lat": 51.6158333333333
    },
    {
      "id": "ERB",
      "name": "Odenwaldkreis",
      "lng": 8.97944444444445,
      "lat": 49.6713888888889
    },
    {
      "id": "LOS  BSK  EH  FW",
      "name": "Oder-Spree",
      "lng": 14.2197222222222,
      "lat": 52.2438888888889
    },
    { "id": "OF", "name": "Offenbach", "lng": 8.82, "lat": 50.01 },
    {
      "id": "OF",
      "name": "Offenbach am Main",
      "lng": 8.76444444444445,
      "lat": 50.1055555555556
    },
    {
      "id": "OL",
      "name": "Oldenburg",
      "lng": 8.38944444444444,
      "lat": 52.9880555555556
    },
    {
      "id": "OL",
      "name": "Oldenburg (Oldb)",
      "lng": 8.21305555555555,
      "lat": 53.14
    },
    {
      "id": "OE",
      "name": "Olpe",
      "lng": 7.97638888888889,
      "lat": 51.0861111111111
    },
    {
      "id": "OG  BH  KEL  LR  WOL",
      "name": "Ortenaukreis",
      "lng": 8.01611111111111,
      "lat": 48.4205555555556
    },
    {
      "id": "OS  BSB  MEL  WTL",
      "name": "Osnabrück",
      "lng": 8.16138888888889,
      "lat": 52.3725
    },
    {
      "id": "OS",
      "name": "Osnabrück",
      "lng": 8.04194444444445,
      "lat": 52.2769444444444
    },
    { "id": "AA  GD", "name": "Ostalbkreis", "lng": 10.09, "lat": 48.8775 },
    {
      "id": "OAL  FÜS  MOD",
      "name": "Ostallgäu",
      "lng": 10.6391666666667,
      "lat": 47.7727777777778
    },
    {
      "id": "OHZ",
      "name": "Osterholz",
      "lng": 8.80805555555556,
      "lat": 53.2511111111111
    },
    {
      "id": "OH",
      "name": "Ostholstein",
      "lng": 10.9511111111111,
      "lat": 54.2608333333333
    },
    {
      "id": "OPR  KY  NP  WK",
      "name": "Ostprignitz-Ruppin",
      "lng": 12.6361111111111,
      "lat": 52.9911111111111
    },
    {
      "id": "PB  BÜR",
      "name": "Paderborn",
      "lng": 8.71972222222222,
      "lat": 51.6641666666667
    },
    { "id": "PA", "name": "Passau", "lng": 13.19, "lat": 48.4963888888889 },
    { "id": "PA", "name": "Passau", "lng": 13.42, "lat": 48.5694444444445 },
    {
      "id": "PE",
      "name": "Peine",
      "lng": 10.2552777777778,
      "lat": 52.3041666666667
    },
    {
      "id": "PAF",
      "name": "Pfaffenhofen a.d. Ilm",
      "lng": 11.5241666666667,
      "lat": 48.5961111111111
    },
    {
      "id": "PF",
      "name": "Pforzheim",
      "lng": 8.69916666666667,
      "lat": 48.8913888888889
    },
    {
      "id": "PI",
      "name": "Pinneberg",
      "lng": 9.74611111111111,
      "lat": 53.7166666666667
    },
    {
      "id": "PS",
      "name": "Pirmasens",
      "lng": 7.60833333333333,
      "lat": 49.1975
    },
    {
      "id": "PLÖ",
      "name": "Plön",
      "lng": 10.3633333333333,
      "lat": 54.2433333333333
    },
    {
      "id": "P",
      "name": "Potsdam",
      "lng": 13.0536111111111,
      "lat": 52.4002777777778
    },
    {
      "id": "PM",
      "name": "Potsdam-Mittelmark",
      "lng": 12.7605555555556,
      "lat": 52.2261111111111
    },
    {
      "id": "PR",
      "name": "Prignitz",
      "lng": 11.9616666666667,
      "lat": 53.1091666666667
    },
    {
      "id": "RA  BH",
      "name": "Rastatt",
      "lng": 8.0975,
      "lat": 48.7838888888889
    },
    {
      "id": "RV  SLG  ÜB  WG",
      "name": "Ravensburg",
      "lng": 9.78,
      "lat": 47.825
    },
    {
      "id": "RE  CAS  GLA",
      "name": "Recklinghausen",
      "lng": 7.15944444444444,
      "lat": 51.6725
    },
    { "id": "REG  VIT", "name": "Regen", "lng": 13.1, "lat": 49.0227777777778 },
    {
      "id": "R",
      "name": "Regensburg",
      "lng": 12.1105555555556,
      "lat": 49.0138888888889
    },
    {
      "id": "R",
      "name": "Regensburg",
      "lng": 12.2827777777778,
      "lat": 49.0038888888889
    },
    {
      "id": "H",
      "name": "Region Hannover",
      "lng": 9.71972222222222,
      "lat": 52.4219444444444
    },
    {
      "id": "SB",
      "name": "Regionalverband Saarbrücken",
      "lng": 6.95722222222222,
      "lat": 49.2513888888889
    },
    {
      "id": "WN  BK",
      "name": "Rems-Murr-Kreis",
      "lng": 9.50111111111111,
      "lat": 48.8988888888889
    },
    { "id": "RS", "name": "Remscheid", "lng": 7.19444444444444, "lat": 51.18 },
    {
      "id": "RD  ECK",
      "name": "Rendsburg-Eckernförde",
      "lng": 9.78111111111111,
      "lat": 54.2891666666667
    },
    {
      "id": "RT",
      "name": "Reutlingen",
      "lng": 9.36583333333333,
      "lat": 48.4063888888889
    },
    {
      "id": "BM",
      "name": "Rhein-Erft-Kreis",
      "lng": 6.71666666666667,
      "lat": 50.905
    },
    {
      "id": "SIM  GOA",
      "name": "Rhein-Hunsrück-Kreis",
      "lng": 7.5,
      "lat": 50.0441666666667
    },
    {
      "id": "NE  GV",
      "name": "Rhein-Kreis Neuss",
      "lng": 6.64944444444444,
      "lat": 51.1436111111111
    },
    {
      "id": "EMS  DIZ  GOH",
      "name": "Rhein-Lahn-Kreis",
      "lng": 7.8425,
      "lat": 50.2633333333333
    },
    {
      "id": "HD",
      "name": "Rhein-Neckar-Kreis",
      "lng": 8.77194444444445,
      "lat": 49.2902777777778
    },
    {
      "id": "RP",
      "name": "Rhein-Pfalz-Kreis",
      "lng": 8.36083333333333,
      "lat": 49.4163888888889
    },
    {
      "id": "SU",
      "name": "Rhein-Sieg-Kreis",
      "lng": 7.38222222222222,
      "lat": 50.7527777777778
    },
    {
      "id": "RÜD  SWA",
      "name": "Rheingau-Taunus-Kreis",
      "lng": 8.08083333333333,
      "lat": 50.1419444444444
    },
    {
      "id": "GL",
      "name": "Rheinisch-Bergischer Kreis",
      "lng": 7.195,
      "lat": 51.0230555555556
    },
    {
      "id": "NES  KÖN  MET",
      "name": "Rhön-Grabfeld",
      "lng": 10.2552777777778,
      "lat": 50.3713888888889
    },
    {
      "id": "RO  AIB  WS",
      "name": "Rosenheim",
      "lng": 12.2825,
      "lat": 47.8958333333333
    },
    {
      "id": "RO",
      "name": "Rosenheim",
      "lng": 12.1247222222222,
      "lat": 47.8558333333333
    },
    {
      "id": "LRO  BÜZ  DBR  GÜ  ROS  TET",
      "name": "Rostock",
      "lng": 12.2216666666667,
      "lat": 53.9119444444444
    },
    {
      "id": "HRO",
      "name": "Rostock",
      "lng": 12.1361111111111,
      "lat": 54.0886111111111
    },
    {
      "id": "ROW  BRV",
      "name": "Rotenburg (Wümme)",
      "lng": 9.3075,
      "lat": 53.2502777777778
    },
    {
      "id": "RH  HIP",
      "name": "Roth",
      "lng": 11.1238888888889,
      "lat": 49.2027777777778
    },
    {
      "id": "PAN  EG  GRI  VIB",
      "name": "Rottal-Inn",
      "lng": 12.8675,
      "lat": 48.4244444444444
    },
    { "id": "RW", "name": "Rottweil", "lng": 8.5325, "lat": 48.2541666666667 },
    {
      "id": "SHK  EIS  SRO",
      "name": "Saale-Holzland-Kreis",
      "lng": 11.7313888888889,
      "lat": 50.9041666666667
    },
    {
      "id": "SOK  LBS  PN  SCZ",
      "name": "Saale-Orla-Kreis",
      "lng": 11.7105555555556,
      "lat": 50.5805555555556
    },
    {
      "id": "SK  MER  MQ  QFT",
      "name": "Saalekreis",
      "lng": 12.0052777777778,
      "lat": 51.3397222222222
    },
    {
      "id": "SLF  RU",
      "name": "Saalfeld-Rudolstadt",
      "lng": 11.3091666666667,
      "lat": 50.6377777777778
    },
    {
      "id": "SLS",
      "name": "Saarlouis",
      "lng": 6.77166666666667,
      "lat": 49.3141666666667
    },
    {
      "id": "HOM",
      "name": "Saarpfalz-Kreis",
      "lng": 7.24222222222222,
      "lat": 49.2486111111111
    },
    {
      "id": "SZ",
      "name": "Salzgitter",
      "lng": 10.3283333333333,
      "lat": 52.1605555555556
    },
    {
      "id": "SLK  ASL  BBG  SBK  SFT",
      "name": "Salzlandkreis",
      "lng": 11.6425,
      "lat": 51.8513888888889
    },
    {
      "id": "SHG  RI",
      "name": "Schaumburg",
      "lng": 9.20638888888889,
      "lat": 52.2927777777778
    },
    {
      "id": "SL",
      "name": "Schleswig-Flensburg",
      "lng": 9.49833333333333,
      "lat": 54.6230555555556
    },
    {
      "id": "SM  MGN",
      "name": "Schmalkalden-Meiningen",
      "lng": 10.405,
      "lat": 50.6305555555556
    },
    {
      "id": "SC",
      "name": "Schwabach",
      "lng": 11.0208333333333,
      "lat": 49.3294444444445
    },
    {
      "id": "HR  FZ  MEG  ZIG",
      "name": "Schwalm-Eder-Kreis",
      "lng": 9.37333333333333,
      "lat": 51.0236111111111
    },
    {
      "id": "SAD  BUL  NAB  NEN  OVI  ROD",
      "name": "Schwandorf",
      "lng": 12.2527777777778,
      "lat": 49.3677777777778
    },
    {
      "id": "VS",
      "name": "Schwarzwald-Baar-Kreis",
      "lng": 8.41111111111111,
      "lat": 48.0188888888889
    },
    {
      "id": "SW",
      "name": "Schweinfurt",
      "lng": 10.2336111111111,
      "lat": 50.0466666666667
    },
    {
      "id": "SW  GEO",
      "name": "Schweinfurt",
      "lng": 10.245,
      "lat": 49.9491666666667
    },
    {
      "id": "SN",
      "name": "Schwerin",
      "lng": 11.4144444444444,
      "lat": 53.6286111111111
    },
    {
      "id": "SHA  BK  CR",
      "name": "Schwäbisch Hall",
      "lng": 9.90861111111111,
      "lat": 49.1444444444444
    },
    { "id": "SE", "name": "Segeberg", "lng": 10.1405555555556, "lat": 53.92 },
    {
      "id": "SI  BLB",
      "name": "Siegen-Wittgenstein",
      "lng": 8.19472222222222,
      "lat": 50.9377777777778
    },
    {
      "id": "SIG  SLG  STO  ÜB",
      "name": "Sigmaringen",
      "lng": 9.24111111111111,
      "lat": 48.0388888888889
    },
    { "id": "SO  LP", "name": "Soest", "lng": 8.2175, "lat": 51.5644444444444 },
    {
      "id": "SG",
      "name": "Solingen",
      "lng": 7.08277777777778,
      "lat": 51.1716666666667
    },
    {
      "id": "SON  NH",
      "name": "Sonneberg",
      "lng": 11.1330555555556,
      "lat": 50.4144444444444
    },
    {
      "id": "SP",
      "name": "Speyer",
      "lng": 8.43666666666667,
      "lat": 49.3161111111111
    },
    {
      "id": "SPN  FOR  GUB  SPB",
      "name": "Spree-Neiße",
      "lng": 14.5952777777778,
      "lat": 51.6894444444444
    },
    {
      "id": "IGB",
      "name": "St. Ingbert",
      "lng": 7.11527777777778,
      "lat": 49.2788888888889
    },
    {
      "id": "WND",
      "name": "St. Wendel",
      "lng": 7.10055555555556,
      "lat": 49.5194444444445
    },
    {
      "id": "STD",
      "name": "Stade",
      "lng": 9.41833333333333,
      "lat": 53.5783333333333
    },
    {
      "id": "STA  WOR",
      "name": "Starnberg",
      "lng": 11.2816666666667,
      "lat": 48.0058333333333
    },
    {
      "id": "IZ",
      "name": "Steinburg",
      "lng": 9.51944444444445,
      "lat": 53.9288888888889
    },
    {
      "id": "ST  BF  TE",
      "name": "Steinfurt",
      "lng": 7.57916666666667,
      "lat": 52.2113888888889
    },
    {
      "id": "SDL  HV  OBG",
      "name": "Stendal",
      "lng": 11.8397222222222,
      "lat": 52.6969444444444
    },
    {
      "id": "OD",
      "name": "Stormarn",
      "lng": 10.3316666666667,
      "lat": 53.7205555555556
    },
    { "id": "HST", "name": "Stralsund", "lng": 13.09, "lat": 54.3138888888889 },
    {
      "id": "SR",
      "name": "Straubing",
      "lng": 12.5725,
      "lat": 48.8758333333333
    },
    {
      "id": "SR  BOG  MAL",
      "name": "Straubing-Bogen",
      "lng": 12.7011111111111,
      "lat": 48.9341666666667
    },
    {
      "id": "S",
      "name": "Stuttgart",
      "lng": 9.17777777777778,
      "lat": 48.7758333333333
    },
    {
      "id": "AC  MON",
      "name": "Städteregion Aachen",
      "lng": 6.21722222222222,
      "lat": 50.7325
    },
    {
      "id": "SHL",
      "name": "Suhl",
      "lng": 10.6869444444444,
      "lat": 50.6094444444445
    },
    {
      "id": "PIR  DW  FTL  SEB",
      "name": "Sächsische Schweiz-Osterzgebirge",
      "lng": 13.9236111111111,
      "lat": 50.9033333333333
    },
    {
      "id": "SÖM",
      "name": "Sömmerda",
      "lng": 11.1547222222222,
      "lat": 51.1577777777778
    },
    {
      "id": "SÜW",
      "name": "Südliche Weinstraße",
      "lng": 8.08194444444444,
      "lat": 49.12
    },
    {
      "id": "PS  ZW",
      "name": "Südwestpfalz",
      "lng": 7.7675,
      "lat": 49.2002777777778
    },
    {
      "id": "TF",
      "name": "Teltow-Fläming",
      "lng": 13.2758333333333,
      "lat": 52.0727777777778
    },
    {
      "id": "TIR  KEM",
      "name": "Tirschenreuth",
      "lng": 12.3652777777778,
      "lat": 49.8925
    },
    {
      "id": "TS  LF",
      "name": "Traunstein",
      "lng": 12.5791666666667,
      "lat": 47.8941666666667
    },
    {
      "id": "TR",
      "name": "Trier",
      "lng": 6.64138888888889,
      "lat": 49.7566666666667
    },
    {
      "id": "TR  SAB",
      "name": "Trier-Saarburg",
      "lng": 6.84333333333333,
      "lat": 49.7172222222222
    },
    {
      "id": "TUT",
      "name": "Tuttlingen",
      "lng": 8.79416666666667,
      "lat": 48.0111111111111
    },
    {
      "id": "TÜ",
      "name": "Tübingen",
      "lng": 8.98777777777778,
      "lat": 48.4816666666667
    },
    {
      "id": "UM  ANG  PZ  SDT  TP",
      "name": "Uckermark",
      "lng": 13.8613888888889,
      "lat": 53.2058333333333
    },
    {
      "id": "UE",
      "name": "Uelzen",
      "lng": 10.5480555555556,
      "lat": 52.9833333333333
    },
    {
      "id": "UL",
      "name": "Ulm",
      "lng": 9.99027777777778,
      "lat": 48.3983333333333
    },
    {
      "id": "UN  LH  LÜN",
      "name": "Unna",
      "lng": 7.73861111111111,
      "lat": 51.5466666666667
    },
    {
      "id": "UH  LSZ  MHL",
      "name": "Unstrut-Hainich-Kreis",
      "lng": 10.5519444444444,
      "lat": 51.1852777777778
    },
    {
      "id": "MN",
      "name": "Unterallgäu",
      "lng": 10.3911111111111,
      "lat": 48.0402777777778
    },
    { "id": "VEC", "name": "Vechta", "lng": 8.22277777777778, "lat": 52.66 },
    {
      "id": "VER",
      "name": "Verden",
      "lng": 9.17583333333333,
      "lat": 52.9730555555556
    },
    {
      "id": "VIE  KK",
      "name": "Viersen",
      "lng": 6.32611111111111,
      "lat": 51.2827777777778
    },
    {
      "id": "VB",
      "name": "Vogelsbergkreis",
      "lng": 9.27138888888889,
      "lat": 50.6380555555556
    },
    {
      "id": "V  AE  OVL  PL  RC",
      "name": "Vogtlandkreis",
      "lng": 12.235,
      "lat": 50.4566666666667
    },
    {
      "id": "VG  ANK  GW  OVP  PW  SBG  UEM  UER  WLG",
      "name": "Vorpommern-Greifswald",
      "lng": 14.0666666666667,
      "lat": 53.5797222222222
    },
    {
      "id": "VR  GMN  NVP  RDG  RÜG",
      "name": "Vorpommern-Rügen",
      "lng": 12.8147222222222,
      "lat": 54.2130555555556
    },
    {
      "id": "DAU",
      "name": "Vulkaneifel",
      "lng": 6.74888888888889,
      "lat": 50.2383333333333
    },
    {
      "id": "VK",
      "name": "Völklingen",
      "lng": 6.85444444444444,
      "lat": 49.2497222222222
    },
    {
      "id": "KB  FKB  WA",
      "name": "Waldeck-Frankenberg",
      "lng": 8.88861111111111,
      "lat": 51.1902777777778
    },
    {
      "id": "WT",
      "name": "Waldshut",
      "lng": 8.21888888888889,
      "lat": 47.6972222222222
    },
    {
      "id": "WAF  BE",
      "name": "Warendorf",
      "lng": 7.95861111111111,
      "lat": 51.87
    },
    {
      "id": "WAK  EA  SLZ",
      "name": "Wartburgkreis",
      "lng": 10.2102777777778,
      "lat": 50.8855555555556
    },
    {
      "id": "WEN",
      "name": "Weiden i.d. OPf.",
      "lng": 12.1602777777778,
      "lat": 49.6761111111111
    },
    {
      "id": "WM  SOG",
      "name": "Weilheim-Schongau",
      "lng": 11.0738888888889,
      "lat": 47.8147222222222
    },
    {
      "id": "WE",
      "name": "Weimar",
      "lng": 11.3297222222222,
      "lat": 50.9808333333333
    },
    {
      "id": "AP  APD",
      "name": "Weimarer Land",
      "lng": 11.5491666666667,
      "lat": 51.0511111111111
    },
    {
      "id": "WUG  GUN",
      "name": "Weißenburg-Gunzenhausen",
      "lng": 10.8936111111111,
      "lat": 49.0325
    },
    {
      "id": "ESW  WIZ",
      "name": "Werra-Meißner-Kreis",
      "lng": 9.92916666666667,
      "lat": 51.1905555555556
    },
    {
      "id": "WES  DIN  MO",
      "name": "Wesel",
      "lng": 6.61833333333333,
      "lat": 51.6269444444445
    },
    {
      "id": "BRA",
      "name": "Wesermarsch",
      "lng": 8.39027777777778,
      "lat": 53.3555555555556
    },
    {
      "id": "WW",
      "name": "Westerwaldkreis",
      "lng": 7.86527777777778,
      "lat": 50.5522222222222
    },
    {
      "id": "FB  BÜD",
      "name": "Wetteraukreis",
      "lng": 8.90777777777778,
      "lat": 50.3547222222222
    },
    {
      "id": "WI",
      "name": "Wiesbaden",
      "lng": 8.23916666666667,
      "lat": 50.0816666666667
    },
    {
      "id": "WHV",
      "name": "Wilhelmshaven",
      "lng": 8.11111111111111,
      "lat": 53.5202777777778
    },
    {
      "id": "HWI",
      "name": "Wismar",
      "lng": 11.4661111111111,
      "lat": 53.8916666666667
    },
    {
      "id": "WB  GHC  JE",
      "name": "Wittenberg",
      "lng": 12.7019444444444,
      "lat": 51.8202777777778
    },
    {
      "id": "WTM",
      "name": "Wittmund",
      "lng": 7.71055555555556,
      "lat": 53.5644444444444
    },
    {
      "id": "WF",
      "name": "Wolfenbüttel",
      "lng": 10.6469444444444,
      "lat": 52.1352777777778
    },
    {
      "id": "WOB  WBG",
      "name": "Wolfsburg",
      "lng": 10.785,
      "lat": 52.4219444444444
    },
    {
      "id": "WO",
      "name": "Worms",
      "lng": 8.36166666666667,
      "lat": 49.6297222222222
    },
    {
      "id": "WUN  MAK  REH  SEL",
      "name": "Wunsiedel i. Fichtelgebirge",
      "lng": 12.0419444444444,
      "lat": 50.09
    },
    {
      "id": "W",
      "name": "Wuppertal",
      "lng": 7.19583333333333,
      "lat": 51.2713888888889
    },
    {
      "id": "WÜ  OCH",
      "name": "Würzburg",
      "lng": 9.90722222222222,
      "lat": 49.665
    },
    {
      "id": "WÜ",
      "name": "Würzburg",
      "lng": 9.93722222222222,
      "lat": 49.7938888888889
    },
    {
      "id": "BL  HCH",
      "name": "Zollernalbkreis",
      "lng": 8.9375,
      "lat": 48.2672222222222
    },
    {
      "id": "ZW",
      "name": "Zweibrücken",
      "lng": 7.36305555555556,
      "lat": 49.2491666666667
    },
    {
      "id": "Z  GC  HOT  WDA",
      "name": "Zwickau",
      "lng": 12.5258333333333,
      "lat": 50.7505555555556
    }
  ]
}
