{
  "names": [
    { "name": "AW", "lng": 7.12083333333333, "lat": 50.4780555555556 },
    { "name": "AIC  FDB", "lng": 11.0527777777778, "lat": 48.4275 },
    { "name": "UL", "lng": 9.67583333333333, "lat": 48.3477777777778 },
    { "name": "ABG  SLN", "lng": 12.3991666666667, "lat": 50.9563888888889 },
    { "name": "AK", "lng": 7.88777777777778, "lat": 50.7952777777778 },
    {
      "name": "SAW  GA  KLZ",
      "lng": 11.2272222222222,
      "lat": 52.6797222222222
    },
    { "name": "AÖ  LF", "lng": 12.7052777777778, "lat": 48.2097222222222 },
    { "name": "AZ", "lng": 8.15722222222222, "lat": 49.7594444444445 },
    { "name": "AM", "lng": 11.8558333333333, "lat": 49.4425 },
    {
      "name": "AS  BUL  ESB  NAB  SUL",
      "lng": 11.8097222222222,
      "lat": 49.3583333333333
    },
    { "name": "WST", "lng": 8.01333333333333, "lat": 53.2186111111111 },
    {
      "name": "ABI  AZE  BTF  KÖT  ZE",
      "lng": 12.2091666666667,
      "lat": 51.6480555555556
    },
    {
      "name": "AN  DKB  FEU  ROT",
      "lng": 10.3008333333333,
      "lat": 49.2269444444445
    },
    { "name": "AN", "lng": 10.5719444444444, "lat": 49.3025 },
    { "name": "AB", "lng": 9.14777777777778, "lat": 49.9736111111111 },
    { "name": "AB  ALZ", "lng": 9.23027777777778, "lat": 50.0444444444444 },
    { "name": "A", "lng": 10.8925, "lat": 48.3697222222222 },
    { "name": "A  SMÜ  WER", "lng": 10.7319444444444, "lat": 48.3538888888889 },
    { "name": "AUR  NOR", "lng": 7.37805555555556, "lat": 53.4888888888889 },
    { "name": "DÜW", "lng": 8.11027777777778, "lat": 49.4530555555556 },
    { "name": "KG  BRK  HAB", "lng": 9.96472222222222, "lat": 50.2225 },
    { "name": "KH", "lng": 7.68666666666667, "lat": 49.8247222222222 },
    { "name": "TÖL  WOR", "lng": 11.4830555555556, "lat": 47.7272222222222 },
    { "name": "BAD", "lng": 8.24, "lat": 48.7616666666667 },
    { "name": "BA", "lng": 10.8866666666667, "lat": 49.8933333333333 },
    { "name": "BA", "lng": 11.0488888888889, "lat": 49.9108333333333 },
    {
      "name": "BAR  BER  EW",
      "lng": 13.7033333333333,
      "lat": 52.8230555555556
    },
    {
      "name": "BZ  BIW  HY  KM",
      "lng": 14.2311111111111,
      "lat": 51.2688888888889
    },
    { "name": "BT", "lng": 11.5713888888889, "lat": 49.9455555555556 },
    {
      "name": "BT  EBS  ESB  KEM  MÜB  PEG",
      "lng": 11.7241666666667,
      "lat": 49.9708333333333
    },
    {
      "name": "BGL  BGD  LF  REI",
      "lng": 12.9955555555556,
      "lat": 47.5955555555556
    },
    { "name": "HP", "lng": 8.63111111111111, "lat": 49.6727777777778 },
    { "name": "B", "lng": 13.4055555555556, "lat": 52.5177777777778 },
    { "name": "WIL  BKS", "lng": 6.9675, "lat": 49.9244444444444 },
    { "name": "BC", "lng": 9.70305555555555, "lat": 48.0769444444445 },
    { "name": "BI", "lng": 8.53222222222222, "lat": 52.0205555555556 },
    { "name": "BIR", "lng": 7.2775, "lat": 49.7125 },
    { "name": "BO  WAT", "lng": 7.21722222222222, "lat": 51.4827777777778 },
    { "name": "FN  TT  ÜB", "lng": 9.40111111111111, "lat": 47.7336111111111 },
    { "name": "BN", "lng": 7.09916666666667, "lat": 50.7341666666667 },
    {
      "name": "BOR  AH  BOH",
      "lng": 6.83916666666667,
      "lat": 51.8513888888889
    },
    { "name": "BOT", "lng": 6.93, "lat": 51.5236111111111 },
    { "name": "BRB", "lng": 12.5633333333333, "lat": 52.4086111111111 },
    { "name": "BS", "lng": 10.5205555555556, "lat": 52.2625 },
    { "name": "FR", "lng": 8.13333333333333, "lat": 47.9302777777778 },
    { "name": "HB", "lng": 8.80944444444445, "lat": 53.0755555555556 },
    { "name": "HB", "lng": 8.57805555555555, "lat": 53.5430555555556 },
    {
      "name": "BLK  HHM  NEB  NMB  WSF  ZZ",
      "lng": 11.8838888888889,
      "lat": 51.1472222222222
    },
    { "name": "BB  LEO", "lng": 8.94277777777778, "lat": 48.6780555555556 },
    {
      "name": "BK  BÖ  HDL  OC  OK  WMS  WZL",
      "lng": 11.3477777777778,
      "lat": 52.2205555555556
    },
    { "name": "BÜS", "lng": 8.69027777777778, "lat": 47.6972222222222 },
    { "name": "CW", "lng": 8.63583333333333, "lat": 48.6788888888889 },
    { "name": "CE", "lng": 10.1036111111111, "lat": 52.7133333333333 },
    {
      "name": "CHA  KÖZ  ROD  WÜM",
      "lng": 12.6955555555556,
      "lat": 49.2369444444445
    },
    { "name": "C", "lng": 12.9216666666667, "lat": 50.8336111111111 },
    { "name": "CLP", "lng": 7.94, "lat": 52.8980555555556 },
    { "name": "CO  NEC", "lng": 11.0947222222222, "lat": 50.2425 },
    { "name": "CO", "lng": 10.9602777777778, "lat": 50.2594444444445 },
    { "name": "COC  ZEL", "lng": 7.17444444444445, "lat": 50.1327777777778 },
    { "name": "COE  LH", "lng": 7.36638888888889, "lat": 51.8666666666667 },
    { "name": "CB", "lng": 14.335, "lat": 51.7594444444445 },
    { "name": "CUX", "lng": 8.81194444444444, "lat": 53.6163888888889 },
    { "name": "DAH", "lng": 11.3572222222222, "lat": 48.3344444444444 },
    {
      "name": "LDS  KW  LC  LN",
      "lng": 13.9230555555556,
      "lat": 52.0119444444445
    },
    { "name": "DA", "lng": 8.65666666666667, "lat": 49.8733333333333 },
    { "name": "DA  DI", "lng": 8.91722222222222, "lat": 49.8858333333333 },
    { "name": "DEG", "lng": 13.0008333333333, "lat": 48.7786111111111 },
    { "name": "DEL", "lng": 8.63, "lat": 53.05 },
    { "name": "DE  RSL", "lng": 12.2419444444444, "lat": 51.8308333333333 },
    { "name": "DH  SY", "lng": 8.70111111111111, "lat": 52.7283333333333 },
    { "name": "DLG  WER", "lng": 10.5277777777778, "lat": 48.5963888888889 },
    { "name": "DGF  LAN", "lng": 12.6105555555556, "lat": 48.6411111111111 },
    { "name": "HEI  MED", "lng": 9.10833333333333, "lat": 54.1341666666667 },
    { "name": "DON  NÖ", "lng": 10.7127777777778, "lat": 48.8069444444444 },
    { "name": "KIB  ROK", "lng": 7.915, "lat": 49.6319444444444 },
    { "name": "DO", "lng": 7.46416666666667, "lat": 51.5141666666667 },
    { "name": "DD", "lng": 13.7369444444444, "lat": 51.0516666666667 },
    { "name": "DU", "lng": 6.76555555555556, "lat": 51.4333333333333 },
    {
      "name": "DN  JÜL  MON  SLE",
      "lng": 6.44583333333333,
      "lat": 50.8177777777778
    },
    { "name": "D", "lng": 6.78, "lat": 51.2241666666667 },
    { "name": "EBE", "lng": 11.9133333333333, "lat": 48.0761111111111 },
    {
      "name": "EIC  HIG  WBS",
      "lng": 10.2533333333333,
      "lat": 51.3836111111111
    },
    { "name": "EI", "lng": 11.3702777777778, "lat": 48.8980555555556 },
    { "name": "BIT  PRÜ", "lng": 6.41027777777778, "lat": 50.0619444444444 },
    { "name": "EE  FI  LIB", "lng": 13.4597222222222, "lat": 51.6122222222222 },
    { "name": "EMD", "lng": 7.20583333333333, "lat": 53.3705555555556 },
    { "name": "EM", "lng": 7.8975, "lat": 48.1486111111111 },
    { "name": "EL", "lng": 7.4025, "lat": 52.7375 },
    { "name": "EN  WIT", "lng": 7.31305555555556, "lat": 51.3488888888889 },
    { "name": "PF", "lng": 8.82777777777778, "lat": 48.9175 },
    { "name": "ED", "lng": 12.0005555555556, "lat": 48.3002777777778 },
    { "name": "EF", "lng": 11.0272222222222, "lat": 50.9772222222222 },
    { "name": "ER", "lng": 11.005, "lat": 49.595 },
    { "name": "ERH  HÖS", "lng": 10.9408333333333, "lat": 49.67 },
    {
      "name": "ERZ  ANA  ASZ  AU  MAB  MEK  STL  SZB  ZP",
      "lng": 12.9447222222222,
      "lat": 50.6088888888889
    },
    { "name": "E", "lng": 7.0125, "lat": 51.4558333333333 },
    { "name": "ES  NT", "lng": 9.36916666666667, "lat": 48.6480555555556 },
    { "name": "EU  SLE", "lng": 6.64388888888889, "lat": 50.5363888888889 },
    { "name": "FL", "lng": 9.4375, "lat": 54.7825 },
    {
      "name": "FO  EBS  PEG",
      "lng": 11.1730555555556,
      "lat": 49.7208333333333
    },
    { "name": "FT", "lng": 8.35416666666667, "lat": 49.5355555555556 },
    { "name": "FF", "lng": 14.5511111111111, "lat": 52.3416666666667 },
    { "name": "F", "lng": 8.6825, "lat": 50.1108333333333 },
    { "name": "FR", "lng": 7.85, "lat": 47.9947222222222 },
    { "name": "FS", "lng": 11.7405555555556, "lat": 48.4472222222222 },
    {
      "name": "FDS  HCH  HOR  WOL",
      "lng": 8.46527777777778,
      "lat": 48.4744444444444
    },
    {
      "name": "FRG  GRA  WOS",
      "lng": 13.5133333333333,
      "lat": 48.8269444444444
    },
    { "name": "FRI", "lng": 7.98388888888889, "lat": 53.505 },
    { "name": "FD", "lng": 9.75888888888889, "lat": 50.5638888888889 },
    { "name": "FFB", "lng": 11.2011111111111, "lat": 48.1877777777778 },
    { "name": "FÜ", "lng": 10.8497222222222, "lat": 49.4466666666667 },
    { "name": "FÜ", "lng": 10.99, "lat": 49.4775 },
    { "name": "GAP", "lng": 11.1297222222222, "lat": 47.5563888888889 },
    { "name": "GE", "lng": 7.09611111111111, "lat": 51.5108333333333 },
    { "name": "G", "lng": 12.0805555555556, "lat": 50.8761111111111 },
    { "name": "GER", "lng": 8.23888888888889, "lat": 49.0480555555556 },
    { "name": "GI", "lng": 8.8075, "lat": 50.5702777777778 },
    { "name": "GF", "lng": 10.6041666666667, "lat": 52.58 },
    {
      "name": "GS  BRL  CLZ",
      "lng": 10.4005555555556,
      "lat": 51.8747222222222
    },
    { "name": "GTH", "lng": 10.6936111111111, "lat": 50.9105555555556 },
    { "name": "NOH", "lng": 7.10916666666667, "lat": 52.4472222222222 },
    { "name": "HGW", "lng": 13.3797222222222, "lat": 54.0958333333333 },
    { "name": "GRZ  ZR", "lng": 12.0888888888889, "lat": 50.7011111111111 },
    { "name": "GG", "lng": 8.47027777777778, "lat": 49.9044444444444 },
    { "name": "GP", "lng": 9.7175, "lat": 48.6630555555556 },
    {
      "name": "GR  LÖB  NOL  NY  WSW  ZI",
      "lng": 14.8791666666667,
      "lat": 51.1972222222222
    },
    { "name": "GÖ  DUD  HMÜ  OHA", "lng": 10.1133333333333, "lat": 51.565 },
    { "name": "GZ  KRU", "lng": 10.3811111111111, "lat": 48.3527777777778 },
    { "name": "GT", "lng": 8.41583333333333, "lat": 51.8602777777778 },
    { "name": "HA", "lng": 7.4675, "lat": 51.3602777777778 },
    { "name": "HAL", "lng": 11.9705555555556, "lat": 51.4825 },
    { "name": "HH", "lng": 9.99694444444444, "lat": 53.5505555555556 },
    { "name": "HM", "lng": 9.39, "lat": 52.095 },
    { "name": "HAM", "lng": 7.81694444444444, "lat": 51.6783333333333 },
    { "name": "HU", "lng": 8.91527777777778, "lat": 50.1355555555556 },
    { "name": "WL", "lng": 9.96277777777778, "lat": 53.3158333333333 },
    {
      "name": "HZ  HBS  QLB  WR",
      "lng": 10.9588888888889,
      "lat": 51.8211111111111
    },
    {
      "name": "HVL  NAU  RN",
      "lng": 12.6286111111111,
      "lat": 52.6211111111111
    },
    {
      "name": "HAS  EBN  GEO  HOH",
      "lng": 10.6069444444444,
      "lat": 50.0627777777778
    },
    { "name": "HK", "lng": 9.76861111111111, "lat": 52.9280555555556 },
    { "name": "HD", "lng": 8.70194444444444, "lat": 49.4088888888889 },
    { "name": "HDH", "lng": 10.1822222222222, "lat": 48.6622222222222 },
    { "name": "HN", "lng": 9.21805555555556, "lat": 49.1405555555556 },
    { "name": "HN", "lng": 9.29333333333333, "lat": 49.2041666666667 },
    { "name": "HS  ERK  GK", "lng": 6.16388888888889, "lat": 51.0494444444444 },
    { "name": "HE", "lng": 10.8888888888889, "lat": 52.2605555555556 },
    { "name": "HF", "lng": 8.64388888888889, "lat": 52.1675 },
    { "name": "HER  WAN", "lng": 7.22277777777778, "lat": 51.5402777777778 },
    { "name": "HEF  ROF", "lng": 9.75277777777778, "lat": 50.9061111111111 },
    { "name": "RZ", "lng": 10.6016666666667, "lat": 53.5888888888889 },
    { "name": "HBN", "lng": 10.7338888888889, "lat": 50.4338888888889 },
    { "name": "HI  ALF", "lng": 9.94333333333333, "lat": 52.09 },
    { "name": "HSK", "lng": 8.385, "lat": 51.3069444444444 },
    { "name": "HG  USI", "lng": 8.50472222222222, "lat": 50.2816666666667 },
    { "name": "HO", "lng": 11.9136111111111, "lat": 50.3163888888889 },
    {
      "name": "HO  MÜB  NAI  REH  SAN",
      "lng": 11.8436111111111,
      "lat": 50.2027777777778
    },
    { "name": "KÜN  ÖHR", "lng": 9.61388888888889, "lat": 49.2713888888889 },
    { "name": "HOL", "lng": 9.55138888888889, "lat": 51.8805555555556 },
    { "name": "HX  WAR", "lng": 9.17805555555555, "lat": 51.6847222222222 },
    { "name": "IK  ARN  IL", "lng": 10.9661111111111, "lat": 50.7377777777778 },
    { "name": "IN", "lng": 11.4233333333333, "lat": 48.7655555555556 },
    { "name": "J", "lng": 11.5919444444444, "lat": 50.93 },
    {
      "name": "JL  BRG  GNT",
      "lng": 12.0261111111111,
      "lat": 52.2605555555556
    },
    { "name": "KL", "lng": 7.77083333333333, "lat": 49.4430555555556 },
    { "name": "KL", "lng": 7.54277777777778, "lat": 49.4319444444444 },
    { "name": "KA", "lng": 8.40527777777778, "lat": 49.0097222222222 },
    { "name": "KA", "lng": 8.66444444444445, "lat": 49.0516666666667 },
    { "name": "KS", "lng": 9.49527777777778, "lat": 51.3147222222222 },
    {
      "name": "KS  HOG  WOH",
      "lng": 9.40666666666667,
      "lat": 51.4011111111111
    },
    { "name": "KF", "lng": 10.6205555555556, "lat": 47.8797222222222 },
    {
      "name": "KEH  MAI  PAR  RID  ROL",
      "lng": 11.8575,
      "lat": 48.8247222222222
    },
    { "name": "KE", "lng": 10.3177777777778, "lat": 47.7238888888889 },
    { "name": "KI", "lng": 10.1372222222222, "lat": 54.3216666666667 },
    { "name": "KT", "lng": 10.2561111111111, "lat": 49.7530555555556 },
    { "name": "KLE  GEL", "lng": 6.25916666666667, "lat": 51.6519444444444 },
    { "name": "KO", "lng": 7.5925, "lat": 50.36 },
    { "name": "KN  STO", "lng": 8.91194444444444, "lat": 47.7991666666667 },
    { "name": "KR", "lng": 6.56083333333333, "lat": 51.3325 },
    { "name": "KC  SAN", "lng": 11.3719444444444, "lat": 50.3277777777778 },
    { "name": "KU  EBS  SAN", "lng": 11.4822222222222, "lat": 50.1025 },
    { "name": "KUS", "lng": 7.47111111111111, "lat": 49.5497222222222 },
    { "name": "KYF  ART  SDH", "lng": 10.9847222222222, "lat": 51.325 },
    { "name": "K", "lng": 6.95694444444445, "lat": 50.9380555555556 },
    {
      "name": "LDK  DIL  WZ",
      "lng": 8.36555555555556,
      "lat": 50.6480555555556
    },
    { "name": "LD", "lng": 8.1125, "lat": 49.1966666666667 },
    { "name": "LL", "lng": 10.9486111111111, "lat": 48.0241666666667 },
    { "name": "LA", "lng": 12.1588888888889, "lat": 48.5386111111111 },
    {
      "name": "LA  MAI  MAL  ROL  VIB",
      "lng": 12.3480555555556,
      "lat": 48.4525
    },
    { "name": "LER", "lng": 7.50083333333333, "lat": 53.2302777777778 },
    {
      "name": "L  BNA  GHA  GRM  MTL  WUR",
      "lng": 12.5991666666667,
      "lat": 51.2213888888889
    },
    { "name": "L", "lng": 12.3780555555556, "lat": 51.3383333333333 },
    { "name": "LEV  OP", "lng": 6.97972222222222, "lat": 51.0325 },
    { "name": "LIF  STE", "lng": 11.1169444444444, "lat": 50.1094444444445 },
    { "name": "LM  WEL", "lng": 8.19944444444445, "lat": 50.4275 },
    { "name": "LI", "lng": 9.88277777777778, "lat": 47.6052777777778 },
    { "name": "LIP", "lng": 8.95083333333333, "lat": 51.9813888888889 },
    { "name": "LB  VAI", "lng": 9.12305555555556, "lat": 48.94 },
    { "name": "LU", "lng": 8.44777777777778, "lat": 49.4833333333333 },
    {
      "name": "LUP  HGN  LBZ  LWL  PCH  STB",
      "lng": 11.4758333333333,
      "lat": 53.3469444444444
    },
    { "name": "LÖ", "lng": 7.77388888888889, "lat": 47.7033333333333 },
    { "name": "HL", "lng": 10.6838888888889, "lat": 53.8663888888889 },
    { "name": "DAN", "lng": 11.1230555555556, "lat": 53.02 },
    { "name": "LG", "lng": 10.6152777777778, "lat": 53.28 },
    { "name": "MD", "lng": 11.6327777777778, "lat": 52.1261111111111 },
    {
      "name": "MKK  GN  SLÜ",
      "lng": 9.40416666666667,
      "lat": 50.2647222222222
    },
    { "name": "MSP", "lng": 9.66277777777778, "lat": 49.9933333333333 },
    { "name": "TBB  MGH", "lng": 9.72555555555556, "lat": 49.5605555555556 },
    { "name": "MTK", "lng": 8.43444444444445, "lat": 50.1025 },
    { "name": "MZ", "lng": 8.27194444444445, "lat": 50.0019444444444 },
    { "name": "MZ  BIN", "lng": 8.03277777777778, "lat": 49.9302777777778 },
    { "name": "MA", "lng": 8.46638888888889, "lat": 49.4877777777778 },
    {
      "name": "MSH  EIL  HET  ML  SGH",
      "lng": 11.3563888888889,
      "lat": 51.5358333333333
    },
    { "name": "MR  BID", "lng": 8.73805555555555, "lat": 50.8369444444445 },
    { "name": "MYK  MY", "lng": 7.33222222222222, "lat": 50.3316666666667 },
    {
      "name": "MSE  AT  DM  MC  MST  MÜR  NZ  RM  WRN",
      "lng": 13.0022222222222,
      "lat": 53.5433333333333
    },
    {
      "name": "MEI  GRH  RG  RIE",
      "lng": 13.4827777777778,
      "lat": 51.2394444444444
    },
    { "name": "MM", "lng": 10.185, "lat": 47.9883333333333 },
    { "name": "MZG", "lng": 6.66611111111111, "lat": 49.4663888888889 },
    { "name": "ME", "lng": 7.07583333333333, "lat": 51.3236111111111 },
    { "name": "MB", "lng": 11.8091666666667, "lat": 47.7413888888889 },
    { "name": "MIL  OBB", "lng": 9.23472222222222, "lat": 49.7572222222222 },
    { "name": "MI", "lng": 8.72277777777778, "lat": 52.32 },
    {
      "name": "FG  BED  DL  FLÖ  HC  MW  RL",
      "lng": 13.1380555555556,
      "lat": 50.9555555555556
    },
    {
      "name": "MOL  FRW  SEE  SRB",
      "lng": 14.1327777777778,
      "lat": 52.6419444444444
    },
    { "name": "MK", "lng": 7.71277777777778, "lat": 51.2625 },
    { "name": "MG", "lng": 6.43166666666667, "lat": 51.1944444444444 },
    { "name": "MÜ  VIB  WS", "lng": 12.3816666666667, "lat": 48.2391666666667 },
    { "name": "MH", "lng": 6.885, "lat": 51.4280555555556 },
    { "name": "M", "lng": 11.5755555555556, "lat": 48.1369444444445 },
    { "name": "M  AIB  WOR", "lng": 11.6183333333333, "lat": 48.0041666666667 },
    { "name": "MS", "lng": 7.62666666666667, "lat": 51.9619444444445 },
    { "name": "MOS  BCH", "lng": 9.28, "lat": 49.4666666666667 },
    { "name": "NU  ILL", "lng": 10.1411111111111, "lat": 48.2980555555556 },
    { "name": "NB", "lng": 13.26, "lat": 53.5572222222222 },
    { "name": "ND  SOB", "lng": 11.1975, "lat": 48.6644444444444 },
    { "name": "NM  PAR", "lng": 11.5666666666667, "lat": 49.2158333333333 },
    { "name": "NMS", "lng": 9.98833333333333, "lat": 54.07 },
    { "name": "NK  OTW", "lng": 7.11722222222222, "lat": 49.3758333333333 },
    {
      "name": "NEA  SEF  UFF",
      "lng": 10.4652777777778,
      "lat": 49.5694444444445
    },
    {
      "name": "NEW  ESB  VOH",
      "lng": 11.8713888888889,
      "lat": 49.7258333333333
    },
    { "name": "NW", "lng": 8.14083333333333, "lat": 49.3519444444445 },
    { "name": "NR", "lng": 7.46138888888889, "lat": 50.5144444444444 },
    { "name": "NI", "lng": 9.25777777777778, "lat": 52.6486111111111 },
    { "name": "NF", "lng": 9.06361111111111, "lat": 54.6177777777778 },
    { "name": "NDH", "lng": 10.7308333333333, "lat": 51.5022222222222 },
    {
      "name": "TDO  DZ  EB  OZ  TG  TO",
      "lng": 13.0383333333333,
      "lat": 51.4422222222222
    },
    {
      "name": "NWM  GDB  GVM  WIS",
      "lng": 11.2488888888889,
      "lat": 53.8186111111111
    },
    {
      "name": "NOM  EIN  GAN",
      "lng": 9.84888888888889,
      "lat": 51.7433333333333
    },
    { "name": "N", "lng": 11.0752777777778, "lat": 49.4508333333333 },
    {
      "name": "LAU  ESB  HEB  N  PEG",
      "lng": 11.3688888888889,
      "lat": 49.4913888888889
    },
    { "name": "OA", "lng": 10.2605555555556, "lat": 47.5788888888889 },
    { "name": "GM", "lng": 7.51694444444444, "lat": 51.0125 },
    { "name": "OB", "lng": 6.85222222222222, "lat": 51.4702777777778 },
    { "name": "OHV", "lng": 13.2052777777778, "lat": 52.9063888888889 },
    {
      "name": "OSL  CA  SFB",
      "lng": 13.9433333333333,
      "lat": 51.6158333333333
    },
    { "name": "ERB", "lng": 8.97944444444445, "lat": 49.6713888888889 },
    {
      "name": "LOS  BSK  EH  FW",
      "lng": 14.2197222222222,
      "lat": 52.2438888888889
    },
    { "name": "OF", "lng": 8.82, "lat": 50.01 },
    { "name": "OF", "lng": 8.76444444444445, "lat": 50.1055555555556 },
    { "name": "OL", "lng": 8.38944444444444, "lat": 52.9880555555556 },
    { "name": "OL", "lng": 8.21305555555555, "lat": 53.14 },
    { "name": "OE", "lng": 7.97638888888889, "lat": 51.0861111111111 },
    {
      "name": "OG  BH  KEL  LR  WOL",
      "lng": 8.01611111111111,
      "lat": 48.4205555555556
    },
    { "name": "OS  BSB  MEL  WTL", "lng": 8.16138888888889, "lat": 52.3725 },
    { "name": "OS", "lng": 8.04194444444445, "lat": 52.2769444444444 },
    { "name": "AA  GD", "lng": 10.09, "lat": 48.8775 },
    {
      "name": "OAL  FÜS  MOD",
      "lng": 10.6391666666667,
      "lat": 47.7727777777778
    },
    { "name": "OHZ", "lng": 8.80805555555556, "lat": 53.2511111111111 },
    { "name": "OH", "lng": 10.9511111111111, "lat": 54.2608333333333 },
    {
      "name": "OPR  KY  NP  WK",
      "lng": 12.6361111111111,
      "lat": 52.9911111111111
    },
    { "name": "PB  BÜR", "lng": 8.71972222222222, "lat": 51.6641666666667 },
    { "name": "PA", "lng": 13.19, "lat": 48.4963888888889 },
    { "name": "PA", "lng": 13.42, "lat": 48.5694444444445 },
    { "name": "PE", "lng": 10.2552777777778, "lat": 52.3041666666667 },
    { "name": "PAF", "lng": 11.5241666666667, "lat": 48.5961111111111 },
    { "name": "PF", "lng": 8.69916666666667, "lat": 48.8913888888889 },
    { "name": "PI", "lng": 9.74611111111111, "lat": 53.7166666666667 },
    { "name": "PS", "lng": 7.60833333333333, "lat": 49.1975 },
    { "name": "PLÖ", "lng": 10.3633333333333, "lat": 54.2433333333333 },
    { "name": "P", "lng": 13.0536111111111, "lat": 52.4002777777778 },
    { "name": "PM", "lng": 12.7605555555556, "lat": 52.2261111111111 },
    { "name": "PR", "lng": 11.9616666666667, "lat": 53.1091666666667 },
    { "name": "RA  BH", "lng": 8.0975, "lat": 48.7838888888889 },
    { "name": "RV  SLG  ÜB  WG", "lng": 9.78, "lat": 47.825 },
    { "name": "RE  CAS  GLA", "lng": 7.15944444444444, "lat": 51.6725 },
    { "name": "REG  VIT", "lng": 13.1, "lat": 49.0227777777778 },
    { "name": "R", "lng": 12.1105555555556, "lat": 49.0138888888889 },
    { "name": "R", "lng": 12.2827777777778, "lat": 49.0038888888889 },
    { "name": "H", "lng": 9.71972222222222, "lat": 52.4219444444444 },
    { "name": "SB", "lng": 6.95722222222222, "lat": 49.2513888888889 },
    { "name": "WN  BK", "lng": 9.50111111111111, "lat": 48.8988888888889 },
    { "name": "RS", "lng": 7.19444444444444, "lat": 51.18 },
    { "name": "RD  ECK", "lng": 9.78111111111111, "lat": 54.2891666666667 },
    { "name": "RT", "lng": 9.36583333333333, "lat": 48.4063888888889 },
    { "name": "BM", "lng": 6.71666666666667, "lat": 50.905 },
    { "name": "SIM  GOA", "lng": 7.5, "lat": 50.0441666666667 },
    { "name": "NE  GV", "lng": 6.64944444444444, "lat": 51.1436111111111 },
    { "name": "EMS  DIZ  GOH", "lng": 7.8425, "lat": 50.2633333333333 },
    { "name": "HD", "lng": 8.77194444444445, "lat": 49.2902777777778 },
    { "name": "RP", "lng": 8.36083333333333, "lat": 49.4163888888889 },
    { "name": "SU", "lng": 7.38222222222222, "lat": 50.7527777777778 },
    { "name": "RÜD  SWA", "lng": 8.08083333333333, "lat": 50.1419444444444 },
    { "name": "GL", "lng": 7.195, "lat": 51.0230555555556 },
    {
      "name": "NES  KÖN  MET",
      "lng": 10.2552777777778,
      "lat": 50.3713888888889
    },
    { "name": "RO  AIB  WS", "lng": 12.2825, "lat": 47.8958333333333 },
    { "name": "RO", "lng": 12.1247222222222, "lat": 47.8558333333333 },
    {
      "name": "LRO  BÜZ  DBR  GÜ  ROS  TET",
      "lng": 12.2216666666667,
      "lat": 53.9119444444444
    },
    { "name": "HRO", "lng": 12.1361111111111, "lat": 54.0886111111111 },
    { "name": "ROW  BRV", "lng": 9.3075, "lat": 53.2502777777778 },
    { "name": "RH  HIP", "lng": 11.1238888888889, "lat": 49.2027777777778 },
    { "name": "PAN  EG  GRI  VIB", "lng": 12.8675, "lat": 48.4244444444444 },
    { "name": "RW", "lng": 8.5325, "lat": 48.2541666666667 },
    {
      "name": "SHK  EIS  SRO",
      "lng": 11.7313888888889,
      "lat": 50.9041666666667
    },
    {
      "name": "SOK  LBS  PN  SCZ",
      "lng": 11.7105555555556,
      "lat": 50.5805555555556
    },
    {
      "name": "SK  MER  MQ  QFT",
      "lng": 12.0052777777778,
      "lat": 51.3397222222222
    },
    { "name": "SLF  RU", "lng": 11.3091666666667, "lat": 50.6377777777778 },
    { "name": "SLS", "lng": 6.77166666666667, "lat": 49.3141666666667 },
    { "name": "HOM", "lng": 7.24222222222222, "lat": 49.2486111111111 },
    { "name": "SZ", "lng": 10.3283333333333, "lat": 52.1605555555556 },
    {
      "name": "SLK  ASL  BBG  SBK  SFT",
      "lng": 11.6425,
      "lat": 51.8513888888889
    },
    { "name": "SHG  RI", "lng": 9.20638888888889, "lat": 52.2927777777778 },
    { "name": "SL", "lng": 9.49833333333333, "lat": 54.6230555555556 },
    { "name": "SM  MGN", "lng": 10.405, "lat": 50.6305555555556 },
    { "name": "SC", "lng": 11.0208333333333, "lat": 49.3294444444445 },
    {
      "name": "HR  FZ  MEG  ZIG",
      "lng": 9.37333333333333,
      "lat": 51.0236111111111
    },
    {
      "name": "SAD  BUL  NAB  NEN  OVI  ROD",
      "lng": 12.2527777777778,
      "lat": 49.3677777777778
    },
    { "name": "VS", "lng": 8.41111111111111, "lat": 48.0188888888889 },
    { "name": "SW", "lng": 10.2336111111111, "lat": 50.0466666666667 },
    { "name": "SW  GEO", "lng": 10.245, "lat": 49.9491666666667 },
    { "name": "SN", "lng": 11.4144444444444, "lat": 53.6286111111111 },
    { "name": "SHA  BK  CR", "lng": 9.90861111111111, "lat": 49.1444444444444 },
    { "name": "SE", "lng": 10.1405555555556, "lat": 53.92 },
    { "name": "SI  BLB", "lng": 8.19472222222222, "lat": 50.9377777777778 },
    {
      "name": "SIG  SLG  STO  ÜB",
      "lng": 9.24111111111111,
      "lat": 48.0388888888889
    },
    { "name": "SO  LP", "lng": 8.2175, "lat": 51.5644444444444 },
    { "name": "SG", "lng": 7.08277777777778, "lat": 51.1716666666667 },
    { "name": "SON  NH", "lng": 11.1330555555556, "lat": 50.4144444444444 },
    { "name": "SP", "lng": 8.43666666666667, "lat": 49.3161111111111 },
    {
      "name": "SPN  FOR  GUB  SPB",
      "lng": 14.5952777777778,
      "lat": 51.6894444444444
    },
    { "name": "IGB", "lng": 7.11527777777778, "lat": 49.2788888888889 },
    { "name": "WND", "lng": 7.10055555555556, "lat": 49.5194444444445 },
    { "name": "STD", "lng": 9.41833333333333, "lat": 53.5783333333333 },
    { "name": "STA  WOR", "lng": 11.2816666666667, "lat": 48.0058333333333 },
    { "name": "IZ", "lng": 9.51944444444445, "lat": 53.9288888888889 },
    { "name": "ST  BF  TE", "lng": 7.57916666666667, "lat": 52.2113888888889 },
    {
      "name": "SDL  HV  OBG",
      "lng": 11.8397222222222,
      "lat": 52.6969444444444
    },
    { "name": "OD", "lng": 10.3316666666667, "lat": 53.7205555555556 },
    { "name": "HST", "lng": 13.09, "lat": 54.3138888888889 },
    { "name": "SR", "lng": 12.5725, "lat": 48.8758333333333 },
    {
      "name": "SR  BOG  MAL",
      "lng": 12.7011111111111,
      "lat": 48.9341666666667
    },
    { "name": "S", "lng": 9.17777777777778, "lat": 48.7758333333333 },
    { "name": "AC  MON", "lng": 6.21722222222222, "lat": 50.7325 },
    { "name": "SHL", "lng": 10.6869444444444, "lat": 50.6094444444445 },
    {
      "name": "PIR  DW  FTL  SEB",
      "lng": 13.9236111111111,
      "lat": 50.9033333333333
    },
    { "name": "SÖM", "lng": 11.1547222222222, "lat": 51.1577777777778 },
    { "name": "SÜW", "lng": 8.08194444444444, "lat": 49.12 },
    { "name": "PS  ZW", "lng": 7.7675, "lat": 49.2002777777778 },
    { "name": "TF", "lng": 13.2758333333333, "lat": 52.0727777777778 },
    { "name": "TIR  KEM", "lng": 12.3652777777778, "lat": 49.8925 },
    { "name": "TS  LF", "lng": 12.5791666666667, "lat": 47.8941666666667 },
    { "name": "TR", "lng": 6.64138888888889, "lat": 49.7566666666667 },
    { "name": "TR  SAB", "lng": 6.84333333333333, "lat": 49.7172222222222 },
    { "name": "TUT", "lng": 8.79416666666667, "lat": 48.0111111111111 },
    { "name": "TÜ", "lng": 8.98777777777778, "lat": 48.4816666666667 },
    {
      "name": "UM  ANG  PZ  SDT  TP",
      "lng": 13.8613888888889,
      "lat": 53.2058333333333
    },
    { "name": "UE", "lng": 10.5480555555556, "lat": 52.9833333333333 },
    { "name": "UL", "lng": 9.99027777777778, "lat": 48.3983333333333 },
    { "name": "UN  LH  LÜN", "lng": 7.73861111111111, "lat": 51.5466666666667 },
    {
      "name": "UH  LSZ  MHL",
      "lng": 10.5519444444444,
      "lat": 51.1852777777778
    },
    { "name": "MN", "lng": 10.3911111111111, "lat": 48.0402777777778 },
    { "name": "VEC", "lng": 8.22277777777778, "lat": 52.66 },
    { "name": "VER", "lng": 9.17583333333333, "lat": 52.9730555555556 },
    { "name": "VIE  KK", "lng": 6.32611111111111, "lat": 51.2827777777778 },
    { "name": "VB", "lng": 9.27138888888889, "lat": 50.6380555555556 },
    { "name": "V  AE  OVL  PL  RC", "lng": 12.235, "lat": 50.4566666666667 },
    {
      "name": "VG  ANK  GW  OVP  PW  SBG  UEM  UER  WLG",
      "lng": 14.0666666666667,
      "lat": 53.5797222222222
    },
    {
      "name": "VR  GMN  NVP  RDG  RÜG",
      "lng": 12.8147222222222,
      "lat": 54.2130555555556
    },
    { "name": "DAU", "lng": 6.74888888888889, "lat": 50.2383333333333 },
    { "name": "VK", "lng": 6.85444444444444, "lat": 49.2497222222222 },
    { "name": "KB  FKB  WA", "lng": 8.88861111111111, "lat": 51.1902777777778 },
    { "name": "WT", "lng": 8.21888888888889, "lat": 47.6972222222222 },
    { "name": "WAF  BE", "lng": 7.95861111111111, "lat": 51.87 },
    {
      "name": "WAK  EA  SLZ",
      "lng": 10.2102777777778,
      "lat": 50.8855555555556
    },
    { "name": "WEN", "lng": 12.1602777777778, "lat": 49.6761111111111 },
    { "name": "WM  SOG", "lng": 11.0738888888889, "lat": 47.8147222222222 },
    { "name": "WE", "lng": 11.3297222222222, "lat": 50.9808333333333 },
    { "name": "AP  APD", "lng": 11.5491666666667, "lat": 51.0511111111111 },
    { "name": "WUG  GUN", "lng": 10.8936111111111, "lat": 49.0325 },
    { "name": "ESW  WIZ", "lng": 9.92916666666667, "lat": 51.1905555555556 },
    {
      "name": "WES  DIN  MO",
      "lng": 6.61833333333333,
      "lat": 51.6269444444445
    },
    { "name": "BRA", "lng": 8.39027777777778, "lat": 53.3555555555556 },
    { "name": "WW", "lng": 7.86527777777778, "lat": 50.5522222222222 },
    { "name": "FB  BÜD", "lng": 8.90777777777778, "lat": 50.3547222222222 },
    { "name": "WI", "lng": 8.23916666666667, "lat": 50.0816666666667 },
    { "name": "WHV", "lng": 8.11111111111111, "lat": 53.5202777777778 },
    { "name": "HWI", "lng": 11.4661111111111, "lat": 53.8916666666667 },
    { "name": "WB  GHC  JE", "lng": 12.7019444444444, "lat": 51.8202777777778 },
    { "name": "WTM", "lng": 7.71055555555556, "lat": 53.5644444444444 },
    { "name": "WF", "lng": 10.6469444444444, "lat": 52.1352777777778 },
    { "name": "WOB  WBG", "lng": 10.785, "lat": 52.4219444444444 },
    { "name": "WO", "lng": 8.36166666666667, "lat": 49.6297222222222 },
    { "name": "WUN  MAK  REH  SEL", "lng": 12.0419444444444, "lat": 50.09 },
    { "name": "W", "lng": 7.19583333333333, "lat": 51.2713888888889 },
    { "name": "WÜ  OCH", "lng": 9.90722222222222, "lat": 49.665 },
    { "name": "WÜ", "lng": 9.93722222222222, "lat": 49.7938888888889 },
    { "name": "BL  HCH", "lng": 8.9375, "lat": 48.2672222222222 },
    { "name": "ZW", "lng": 7.36305555555556, "lat": 49.2491666666667 },
    {
      "name": "Z  GC  HOT  WDA",
      "lng": 12.5258333333333,
      "lat": 50.7505555555556
    }
  ]
}
